{
  "date_generation": "2025-11-21",
  "total_centrales": 52,
  "top25": [
    {
      "id_ref": "30516",
      "nom": "Hangar LAMIOT",
      "puissance_kwc": 343.07,
      "adresse": "La Gélopière, 42110 Feurs, France",
      "type": "SOL",
      "dept": "42",
      "latitude": 45.73213,
      "longitude": 4.2051523,
      "distance_km": 49.1,
      "base_proche": "Lyon",
      "distance_toulouse": 321.9,
      "distance_lyon": 49.1,
      "dept_nom": "Loire"
    },
    {
      "id_ref": "58166",
      "nom": "GAYET 42",
      "puissance_kwc": 309.4,
      "adresse": "419 Chemin des Seigles, 42210 Craintilleux, France",
      "type": "SOL",
      "dept": "42",
      "latitude": 45.578898,
      "longitude": 4.2194231,
      "distance_km": 52.1,
      "base_proche": "Lyon",
      "distance_toulouse": 310.6,
      "distance_lyon": 52.1,
      "dept_nom": "Loire"
    },
    {
      "id_ref": "17996",
      "nom": "Mathieu Montet",
      "puissance_kwc": 432.015,
      "adresse": "127 Route de la Tour, 38110 Montagnieu, France",
      "type": "TOITURE",
      "dept": "38",
      "latitude": 45.5349688,
      "longitude": 5.4518868,
      "distance_km": 54.2,
      "base_proche": "Lyon",
      "distance_toulouse": 383.1,
      "distance_lyon": 54.2,
      "dept_nom": "Isère"
    },
    {
      "id_ref": "3085",
      "nom": "Hangar Maxime Bayle",
      "puissance_kwc": 324.87,
      "adresse": "Château Lagoual, 11400 Lasbordes, France",
      "type": "SOL",
      "dept": "11",
      "latitude": 43.298645,
      "longitude": 2.075894,
      "distance_km": 61.3,
      "base_proche": "Toulouse",
      "distance_toulouse": 61.3,
      "distance_lyon": 350.7,
      "dept_nom": "Aude"
    },
    {
      "id_ref": "90189",
      "nom": "HARAS DE LA MAJORIE/MANOHA",
      "puissance_kwc": 499.59,
      "adresse": "L'Homme, 07790 Saint-Alban-d'Ay, France",
      "type": "SOL",
      "dept": "07",
      "latitude": 45.1973395,
      "longitude": 4.6689206,
      "distance_km": 64.3,
      "base_proche": "Lyon",
      "distance_toulouse": 311.4,
      "distance_lyon": 64.3,
      "dept_nom": "Ardèche"
    },
    {
      "id_ref": "95190",
      "nom": "Hangar Denis Balavoine",
      "puissance_kwc": 499.59,
      "adresse": "Chem. du Piot, 32500 Fleurance, France",
      "type": "SOL",
      "dept": "32",
      "latitude": 43.836537,
      "longitude": 0.671232,
      "distance_km": 67.3,
      "base_proche": "Toulouse",
      "distance_toulouse": 67.3,
      "distance_lyon": 392.2,
      "dept_nom": "Gers"
    },
    {
      "id_ref": "95592",
      "nom": "GFA LASCOMBES - ANTOINE MICOULEAU",
      "puissance_kwc": 277.095,
      "adresse": "Lascombes, 11170 Alzonne, France",
      "type": "SOL",
      "dept": "11",
      "latitude": 43.261285,
      "longitude": 2.150816,
      "distance_km": 68.7,
      "base_proche": "Toulouse",
      "distance_toulouse": 68.7,
      "distance_lyon": 350.3,
      "dept_nom": "Aude"
    },
    {
      "id_ref": "99373",
      "nom": "Hangar Yannick CLEMENT",
      "puissance_kwc": 331.24,
      "adresse": "Gazailles, 31160 Estadens, France",
      "type": "SOL",
      "dept": "31",
      "latitude": 43.049103,
      "longitude": 0.855347,
      "distance_km": 78.0,
      "base_proche": "Toulouse",
      "distance_toulouse": 78.0,
      "distance_lyon": 437.1,
      "dept_nom": "Haute-Garonne (Toulouse)"
    },
    {
      "id_ref": "95918",
      "nom": "Hangar Frédéric CASTET",
      "puissance_kwc": 309.4,
      "adresse": "11 Carrère de la Goutille, 31160 Estadens, France",
      "type": "SOL",
      "dept": "31",
      "latitude": 43.0438324,
      "longitude": 0.8606065,
      "distance_km": 78.2,
      "base_proche": "Toulouse",
      "distance_toulouse": 78.2,
      "distance_lyon": 437.2,
      "dept_nom": "Haute-Garonne (Toulouse)"
    },
    {
      "id_ref": "95919",
      "nom": "Hangar Frédéric CASTET",
      "puissance_kwc": 286.65,
      "adresse": "11 carrère de la Gentille, ESTADENS, 31160",
      "type": "TOITURE",
      "dept": "31",
      "latitude": 43.0438324,
      "longitude": 0.8606065,
      "distance_km": 78.2,
      "base_proche": "Toulouse",
      "distance_toulouse": 78.2,
      "distance_lyon": 437.2,
      "dept_nom": "Haute-Garonne (Toulouse)"
    },
    {
      "id_ref": "97565",
      "nom": "Commune De Pomas",
      "puissance_kwc": 254.8,
      "adresse": "Rue de la Mairie, 11250 Pomas, France",
      "type": "SOL",
      "dept": "11",
      "latitude": 43.115116,
      "longitude": 2.296403,
      "distance_km": 87.8,
      "base_proche": "Toulouse",
      "distance_toulouse": 87.8,
      "distance_lyon": 356.9,
      "dept_nom": "Aude"
    },
    {
      "id_ref": "30489",
      "nom": "Hangar Pierre MOURGUES",
      "puissance_kwc": 222.5,
      "adresse": "Mondounet - Fargues, 46800 Porte-du-Quercy, France",
      "type": "SOL",
      "dept": "46",
      "latitude": 44.382264,
      "longitude": 1.167541,
      "distance_km": 89.2,
      "base_proche": "Toulouse",
      "distance_toulouse": 89.2,
      "distance_lyon": 326.4,
      "dept_nom": "Lot"
    },
    {
      "id_ref": "89219",
      "nom": "EARL CADOT",
      "puissance_kwc": 309.4,
      "adresse": "La Maisonneuve, 42310 Urbise, France",
      "type": "SOL",
      "dept": "42",
      "latitude": 46.248955,
      "longitude": 3.883046,
      "distance_km": 91.2,
      "base_proche": "Lyon",
      "distance_toulouse": 351.1,
      "distance_lyon": 91.2,
      "dept_nom": "Loire"
    },
    {
      "id_ref": "28173",
      "nom": "Burgat Et Fils Tp",
      "puissance_kwc": 113.03,
      "adresse": "La Plaine 11300 Cournanel",
      "type": "TOITURE",
      "dept": "11",
      "latitude": 42.994422,
      "longitude": 2.1968467,
      "distance_km": 91.2,
      "base_proche": "Toulouse",
      "distance_toulouse": 91.2,
      "distance_lyon": 372.5,
      "dept_nom": "Aude"
    },
    {
      "id_ref": "96147",
      "nom": "Hangar Benjamin CHASSON",
      "puissance_kwc": 388.04,
      "adresse": "465 Rue Jean Rostand, 26800 Portes-lès-Valence, France",
      "type": "SOL",
      "dept": "26",
      "latitude": 44.891874,
      "longitude": 4.875345,
      "distance_km": 97.0,
      "base_proche": "Lyon",
      "distance_toulouse": 308.5,
      "distance_lyon": 97.0,
      "dept_nom": "Drôme"
    },
    {
      "id_ref": "33559",
      "nom": "Hangar Christophe CARRERE n°2",
      "puissance_kwc": 278.005,
      "adresse": "Boy, 47600 Montagnac-sur-Auvignon, France",
      "type": "SOL",
      "dept": "47",
      "latitude": 44.148762,
      "longitude": 0.45057,
      "distance_km": 100.0,
      "base_proche": "Toulouse",
      "distance_toulouse": 100.0,
      "distance_lyon": 388.9,
      "dept_nom": "Lot-et-Garonne"
    },
    {
      "id_ref": "32074",
      "nom": "Didier - PRIEUR",
      "puissance_kwc": 449.54,
      "adresse": "Quartier de Montalivet 26120 Montmeyran",
      "type": "SOL",
      "dept": "26",
      "latitude": 44.846622,
      "longitude": 4.958897,
      "distance_km": 102.5,
      "base_proche": "Lyon",
      "distance_toulouse": 312.2,
      "distance_lyon": 102.5,
      "dept_nom": "Drôme"
    },
    {
      "id_ref": "22147",
      "nom": "HANGAR Christian MIGNARD",
      "puissance_kwc": 97.11,
      "adresse": "Chemin de Rieux 11700 Pépieux",
      "type": "SOL",
      "dept": "11",
      "latitude": 43.297328,
      "longitude": 2.67123,
      "distance_km": 104.8,
      "base_proche": "Toulouse",
      "distance_toulouse": 104.8,
      "distance_lyon": 323.5,
      "dept_nom": "Aude"
    },
    {
      "id_ref": "3334",
      "nom": "MATHIEU Vincent",
      "puissance_kwc": 218.4,
      "adresse": "Lieu-dit Les Avals 11700 LA REDORTE",
      "type": "SOL",
      "dept": "11",
      "latitude": 43.2511259,
      "longitude": 2.6540254,
      "distance_km": 105.3,
      "base_proche": "Toulouse",
      "distance_toulouse": 105.3,
      "distance_lyon": 328.6,
      "dept_nom": "Aude"
    },
    {
      "id_ref": "3251",
      "nom": "SCI KILJOR",
      "puissance_kwc": 109.2,
      "adresse": "6 Rue Albert Camus, 07800 La Voulte-sur-Rhône, France",
      "type": "TOITURE",
      "dept": "07",
      "latitude": 44.8155816,
      "longitude": 4.788295,
      "distance_km": 105.5,
      "base_proche": "Lyon",
      "distance_toulouse": 298.6,
      "distance_lyon": 105.5,
      "dept_nom": "Ardèche"
    },
    {
      "id_ref": "83705",
      "nom": "Azemar",
      "puissance_kwc": 319.41,
      "adresse": "12160 Camboulazet, France",
      "type": "SOL",
      "dept": "12",
      "latitude": 44.227405,
      "longitude": 2.4430679,
      "distance_km": 105.8,
      "base_proche": "Toulouse",
      "distance_toulouse": 105.8,
      "distance_lyon": 254.1,
      "dept_nom": "Aveyron"
    },
    {
      "id_ref": "35451",
      "nom": "Hangar Joris SAINT MARTIN",
      "puissance_kwc": 218.4,
      "adresse": "Palancot, 32160 Jû-Belloc, France",
      "type": "SOL",
      "dept": "32",
      "latitude": 43.5674319,
      "longitude": 0.015617,
      "distance_km": 115.1,
      "base_proche": "Toulouse",
      "distance_toulouse": 115.1,
      "distance_lyon": 452.6,
      "dept_nom": "Gers"
    },
    {
      "id_ref": "95992",
      "nom": "Hangar Sebastien RUDELLE",
      "puissance_kwc": 309.4,
      "adresse": "Crayssac, 12120 Salmiech, France",
      "type": "SOL",
      "dept": "12",
      "latitude": 44.218003,
      "longitude": 2.632367,
      "distance_km": 117.1,
      "base_proche": "Toulouse",
      "distance_toulouse": 117.1,
      "distance_lyon": 244.1,
      "dept_nom": "Aveyron"
    },
    {
      "id_ref": "61191",
      "nom": "Serge Maltaverne",
      "puissance_kwc": 260.26,
      "adresse": "638  route Chard, 71320 Sainte-Radegonde, France",
      "type": "SOL",
      "dept": "71",
      "latitude": 46.693226,
      "longitude": 4.104066,
      "distance_km": 117.7,
      "base_proche": "Lyon",
      "distance_toulouse": 401.8,
      "distance_lyon": 117.7,
      "dept_nom": "Saône-et-Loire"
    },
    {
      "id_ref": "90361",
      "nom": "Serge Maltaverne",
      "puissance_kwc": 218.855,
      "adresse": "638 Chard, 71320 Sainte-Radegonde, France",
      "type": "TOITURE",
      "dept": "71",
      "latitude": 46.6938,
      "longitude": 4.10361,
      "distance_km": 117.7,
      "base_proche": "Lyon",
      "distance_toulouse": 401.8,
      "distance_lyon": 117.7,
      "dept_nom": "Saône-et-Loire"
    }
  ]
}